City_ID,City,Cloudiness,Country,Date,Humidity,Lat,Lng,Max Temp,Wind Speed
0,punta arenas,30,CL,1571259600,50.0,-53.1627,-70.9081,286.643,1.812
1,bambous virieux,0,MU,1571140800,68.0,-20.3428,57.7575,296.93,4.728
2,hobart,100,AU,1571540400,66.0,-42.8826,147.3281,286.038,6.43
3,walvis bay,0,NA,1571140800,36.0,-22.9544,14.5075,300.12,7.326
4,upernavik,100,GL,1571389200,76.0,72.7868,-56.1549,273.179,3.606
5,barrow,20,AR,1571508000,49.0,-38.3131,-60.2291,293.102,3.723
6,soma,100,JP,1571454000,89.0,37.7957,140.916,292.966,12.853
7,zhezkazgan,75,KZ,1571216400,46.0,47.8043,67.7144,291.176,12.517
8,paita,0,PE,1571162400,37.0,-5.0851,-81.1138,302.184,7.568
9,jamestown,0,AU,1571540400,18.0,-33.2075,138.6035,295.408,3.62
10,port alfred,0,ZA,1571216400,45.0,-33.5906,26.891,298.446,6.207
11,busselton,86,AU,1571464800,57.0,-33.6445,115.3489,295.712,1.478
12,bubaque,97,GW,1571173200,73.0,11.2833,-15.8334,301.703,3.962
13,mar del plata,7,AR,1571518800,16.0,-46.4276,-67.5191,297.139,11.21
14,mujiayingzi,0,CN,1571464800,31.0,42.1167,118.7833,292.742,5.758
15,rikitea,17,PF,1571184000,85.0,-23.1203,-134.9692,296.724,3.4
16,provideniya,100,RU,1571130000,87.0,64.4238,-173.2276,277.6,14.189
17,khatanga,61,RU,1571119200,91.0,71.9801,102.4743,266.44,2.806
18,vaini,34,IN,1571130000,69.0,15.336,74.4926,302.84,4.176
19,ancud,0,CL,1571518800,62.0,-41.8682,-73.8288,287.809,5.257
20,mataura,1,NZ,1571454000,52.0,-46.1928,168.8643,289.666,6.0
21,pisco,94,PE,1571248800,51.0,-13.71,-76.203,296.1,4.94
22,karad,0,IN,1571130000,58.0,17.2852,74.1822,301.234,4.427
23,jalu,0,LY,1571410800,17.0,29.0331,21.5482,307.36,2.903
24,norman wells,100,CA,1571259600,87.0,65.2824,-126.8328,272.203,1.972
25,ushuaia,0,AR,1571248800,65.0,-54.807,-68.3074,284.7,3.139
26,linjiang,41,CN,1571292000,35.0,41.8092,126.9128,286.384,1.432
27,ewa beach,72,US,1571529600,63.0,21.3156,-158.0089,300.356,4.352
28,kapaa,99,US,1571184000,58.0,22.0752,-159.319,300.574,3.557
29,mbanza-ngungu,100,CD,1571140800,64.0,-5.2501,14.8667,300.71,2.521
30,castro,11,CL,1571508000,37.0,-42.4824,-73.7644,291.302,1.857
31,saskylakh,94,RU,1571119200,96.0,71.965,114.0939,267.88,2.351
32,albany,100,US,1571259600,80.0,42.6512,-73.755,287.543,6.521
33,dikson,100,RU,1571443200,92.0,73.5069,80.5464,271.193,9.059
34,flin flon,21,CA,1571432400,69.0,54.7698,-101.879,283.225,1.298
35,hilo,15,US,1571346000,67.0,19.7072,-155.0817,299.491,3.834
36,bandarbeyla,67,SO,1571486400,78.0,9.4942,50.8122,301.371,4.357
37,cabedelo,16,BR,1571151600,54.0,-6.9733,-34.8352,302.8,6.192
38,lavrentiya,100,RU,1571130000,81.0,65.5842,-170.989,275.894,11.762
39,hithadhoo,1,MV,1571302800,74.0,-0.6,73.0833,301.009,3.555
40,chabahar,0,IR,1571378400,18.0,25.2933,60.6471,307.473,5.748
41,may pen,95,JM,1571151600,57.0,17.9746,-77.2582,302.95,1.473
42,saint-philippe,100,CA,1571248800,46.0,45.3584,-73.4791,288.7,6.992
43,eenhana,0,NA,1571486400,4.0,-17.4773,16.3366,311.441,5.004
44,abidjan,39,CI,1571227200,50.0,5.3204,-4.0162,305.473,3.015
45,belmonte,93,PT,1571313600,78.0,40.3583,-7.3513,289.939,1.696
46,ribeira grande,100,PT,1571216400,95.0,38.5167,-28.7001,292.416,9.114
47,lumby,90,CA,1571259600,62.0,50.25,-118.9667,280.933,4.329
48,madinat sittah uktubar,0,EG,1571140800,24.0,29.8167,31.05,308.98,5.765
49,dera ghazi khan,0,PK,1571216400,10.0,30.0321,70.6401,310.166,0.379
50,petropavlovsk-kamchatskiy,1,RU,1571281200,58.0,53.0452,158.6483,278.415,9.378
51,airai,24,TL,1571454000,20.0,-8.9266,125.4092,305.386,5.842
52,kula,0,RS,1571140800,37.0,45.6088,19.5328,298.01,2.176
53,maricka,0,BA,1571140800,32.0,44.8686,16.8406,297.03,1.491
54,tuktoyaktuk,0,CA,1571356800,78.0,69.444,-133.032,269.026,7.825
55,yar-sale,100,RU,1571119200,93.0,66.8333,70.8333,277.17,6.242
56,chupa,62,PE,1571162400,35.0,-15.106,-69.9866,288.284,2.296
57,turukhansk,100,RU,1571130000,96.0,65.7954,87.9608,278.504,3.913
58,buala,100,SB,1571540400,68.0,-8.1456,159.593,302.338,3.856
59,bull savanna,88,JM,1571335200,59.0,17.8868,-77.5903,302.285,3.76
60,bluff,10,AU,1571119200,14.0,-23.58,149.0661,309.43,3.342
61,udachnyy,100,RU,1571205600,100.0,66.4167,112.4,275.439,6.617
62,fairbanks,0,US,1571184000,37.0,64.8378,-147.7167,273.684,2.312
63,hamilton,0,CA,1571508000,63.0,43.2552,-79.8683,288.202,5.429
64,bilibino,100,RU,1571270400,89.0,68.055,166.4449,268.28,1.077
65,halifax,66,CA,1571162400,82.0,44.6491,-63.5752,288.484,5.967
66,morehead,0,US,1571173200,48.0,38.184,-83.4327,296.013,2.747
67,camacha,0,PT,1571335200,73.0,33.0833,-16.3334,294.705,3.065
68,tasiilaq,0,GL,1571238000,55.0,65.6145,-37.6368,274.5,2.757
69,yellowknife,81,CA,1571346000,96.0,62.4541,-114.3774,274.461,2.924
70,bredasdorp,0,ZA,1571140800,28.0,-34.5331,20.0428,300.29,7.715
71,hovd,0,NO,1571227200,78.0,63.8339,10.6972,280.373,5.739
72,praia da vitoria,88,PT,1571205600,86.0,38.7333,-27.0667,294.299,13.524
73,mahebourg,18,MU,1571130000,63.0,-20.4081,57.7,297.75,5.1
74,hualmay,49,PE,1571248800,53.0,-11.0968,-77.613,296.0,5.288
75,husavik,52,CA,1571518800,69.0,50.5623,-96.9949,283.749,6.185
76,hermanus,0,ZA,1571335200,86.0,-34.4176,19.2361,291.405,11.116
77,cururupu,0,BR,1571497200,42.0,-1.8243,-44.873,306.932,3.71
78,kasongo,93,CD,1571130000,57.0,-4.427,26.6662,305.924,0.503
79,alta floresta,25,BR,1571248800,30.0,-9.8716,-56.084,311.2,1.18
80,beira,97,ES,1571238000,93.0,43.1993,-8.3567,289.0,2.21
81,arraial do cabo,29,BR,1571162400,82.0,-22.9663,-42.0245,296.984,2.831
82,bonthe,57,SL,1571140800,70.0,7.5273,-12.502,302.43,3.722
83,cape town,5,ZA,1571140800,41.0,-33.929,18.4174,296.14,4.68
84,maniwaki,7,CA,1571162400,55.0,46.381,-75.9842,283.284,4.328
85,koson,0,UZ,1571302800,13.0,39.0389,65.5875,300.539,6.177
86,weymouth,33,US,1571248800,52.0,42.2212,-70.9392,289.6,4.603
87,haines junction,100,CA,1571518800,83.0,60.7527,-137.5101,271.509,3.959
88,cayenne,0,GF,1571324400,54.0,4.9371,-52.3259,305.19,4.107
89,vila,0,IT,1571324400,55.0,45.1829,8.402,292.79,1.616
90,orleans,10,BR,1571410800,82.0,-28.3573,-49.2873,297.72,1.56
91,orichi,93,RU,1571130000,68.0,58.4013,49.0565,278.954,3.197
92,coihaique,100,CL,1571508000,38.0,-45.5753,-72.0662,287.962,4.036
93,leningradskiy,100,RU,1571302800,88.0,69.3833,178.4167,275.669,6.995
94,los llanos de aridane,23,ES,1571508000,75.0,28.6585,-17.9183,295.352,1.097
95,yulara,26,AU,1571119200,8.0,-25.2411,130.9869,311.63,12.727
96,avarua,84,CK,1571119200,77.0,-21.2078,-159.775,297.8,5.765
97,port elizabeth,100,US,1571238000,63.0,39.3134,-74.9811,293.5,6.482
98,marsa matruh,0,EG,1571151600,76.0,31.3525,27.2453,297.6,5.506
99,san quintin,71,PH,1571119200,61.0,17.5427,120.5203,304.26,2.939
100,pacific grove,79,US,1571216400,65.0,36.6174,-121.9156,288.516,2.928
101,petilia policastro,88,IT,1571227200,54.0,39.1094,16.7887,298.213,4.106
102,saint-augustin,100,CA,1571248800,60.0,45.6256,-73.9796,287.6,7.674
103,lompoc,0,US,1571162400,35.0,34.6392,-120.458,295.384,3.458
104,acajutla,6,SV,1571529600,72.0,13.5905,-89.8329,301.826,2.018
105,luderitz,0,NA,1571443200,67.0,-26.6481,15.1594,289.353,5.355
106,nanortalik,100,GL,1571540400,83.0,60.1432,-45.2372,277.928,10.159
107,ciudad dario,90,NI,1571335200,61.0,12.732,-86.1244,302.625,1.434
108,rwamagana,100,RW,1571302800,57.0,-1.9513,30.4349,298.739,1.441
109,lazaro cardenas,0,MX,1571432400,23.0,28.3905,-105.6235,304.365,5.423
110,torbay,100,CA,1571421600,100.0,47.6577,-52.727,284.403,5.898
111,cabo san lucas,32,MX,1571248800,74.0,22.8938,-109.9112,301.2,2.875
112,gat,0,SN,1571410800,28.0,14.6934,-16.5351,311.47,2.901
113,yeppoon,0,AU,1571119200,40.0,-23.1349,150.7437,305.51,5.137
114,krasnyy kholm,100,RU,1571292000,96.0,58.0565,37.1147,282.254,4.671
115,mana,11,NG,1571238000,28.0,13.0278,5.2728,309.3,1.244
116,san cristobal,7,HN,1571421600,48.0,14.6765,-86.9185,304.003,0.538
117,puerto ayora,7,EC,1571432400,68.0,-0.7394,-90.3518,296.295,8.911
118,vagur,100,FO,1571227200,93.0,61.4732,-6.8119,283.233,12.764
119,mount isa,52,AU,1571119200,11.0,-20.729,139.4932,312.39,4.324
120,hanumangarh,0,IN,1571302800,9.0,29.576,74.3342,310.749,0.765
121,pirogovskiy,100,RU,1571313600,81.0,55.9781,37.7336,286.489,3.929
122,narsaq,100,GL,1571540400,88.0,60.9127,-46.0453,276.198,6.161
123,codrington,0,AU,1571281200,28.0,-28.9484,153.2428,307.555,5.338
124,beloha,0,MG,1571486400,11.0,-25.1739,45.0615,310.041,1.6
125,kulhudhuffushi,73,MV,1571140800,68.0,6.6221,73.07,302.11,2.214
126,aykhal,100,RU,1571205600,99.0,65.9451,111.5081,274.949,7.343
127,sayyan,1,YE,1571486400,29.0,15.1718,44.3244,295.341,6.538
128,san patricio,97,PY,1571324400,76.0,-26.9767,-56.8274,299.89,0.39
129,longyearbyen,100,NO,1571259600,98.0,78.2198,15.6349,269.083,2.998
130,yibin,28,CN,1571378400,55.0,28.7658,104.6353,297.343,1.909
131,nikolskoye,52,RU,1571486400,75.0,59.7035,30.7861,285.461,2.695
132,evensk,100,RU,1571194800,74.0,61.9192,159.2359,268.613,6.125
133,gamba,0,CN,1571389200,19.0,28.2785,88.5182,280.569,7.12
134,east london,0,ZA,1571302800,54.0,-33.0153,27.9116,299.319,7.201
135,oktyabrskoye,97,RU,1571119200,50.0,56.7292,85.4429,287.68,5.408
136,borovichi,100,RU,1571281200,96.0,58.389,33.9068,282.145,2.051
137,alice springs,93,AU,1571119200,9.0,-23.6984,133.8813,312.36,7.908
138,saldanha,19,PT,1571324400,66.0,41.4184,-6.5524,291.49,4.448
139,angoram,99,PG,1571454000,40.0,-4.0563,144.0729,307.946,1.144
140,tyazhinskiy,100,RU,1571119200,45.0,56.114,88.5172,288.25,5.203
141,coquimbo,0,CL,1571119200,82.0,-29.9532,-71.3381,287.76,0.809
142,hakkari,73,FI,1571475600,82.0,61.3371,23.7548,281.778,2.903
143,saint george,0,GR,1571227200,26.0,39.4548,22.34,300.453,1.116
144,egvekinot,100,RU,1571119200,92.0,66.3167,-179.1667,270.84,2.513
145,deputatskiy,100,RU,1571356800,96.0,69.3,139.9,267.016,1.574
146,bethel,100,US,1571184000,80.0,60.7922,-161.7559,278.694,3.986
147,clyde river,100,CA,1571119200,73.0,70.4692,-68.5915,272.47,0.923
148,valdivia,5,CL,1571508000,37.0,-39.8142,-73.2459,296.142,1.98
149,nome,95,US,1571162400,72.0,30.0358,-94.4244,302.784,4.77
150,georgetown,69,GY,1571410800,73.0,6.8026,-58.1629,301.89,5.275
151,batticaloa,62,LK,1571205600,51.0,7.7102,81.6924,306.089,1.828
152,chernyshevskiy,100,RU,1571205600,93.0,63.0128,112.4714,276.359,4.73
153,tiksi,100,RU,1571281200,95.0,71.6366,128.8685,267.675,2.389
154,banda aceh,41,ID,1571292000,62.0,5.5577,95.3222,303.424,2.46
155,kruisfontein,0,ZA,1571216400,24.0,-34.0034,24.7314,301.476,2.775
156,cidreira,41,BR,1571421600,85.0,-30.1658,-50.2184,295.763,5.028
157,chambas,3,CU,1571248800,63.0,22.1938,-78.9139,303.5,0.672
158,new norfolk,53,AU,1571194800,31.0,-42.7802,147.0615,289.733,0.62
159,flinders,33,AU,1571119200,85.0,-34.581,150.846,296.98,7.606
160,wasilla,61,US,1571529600,74.0,61.5828,-149.4381,277.736,2.173
161,qaanaaq,100,GL,1571119200,88.0,77.484,-69.3633,266.57,3.954
162,mabaruma,77,GY,1571335200,51.0,8.1986,-59.7817,305.905,2.937
163,atuona,0,PF,1571346000,74.0,-9.8,-139.0334,300.021,8.747
164,port blair,100,IN,1571302800,71.0,11.6667,92.75,302.849,4.429
165,lucapa,46,AO,1571227200,55.0,-8.4196,20.7411,303.433,1.806
166,shihezi,41,CN,1571119200,23.0,44.3,86.0333,293.71,6.937
167,cochrane,23,CL,1571518800,52.0,-47.2541,-72.5732,282.809,3.842
168,lebu,0,ET,1571130000,57.0,8.9611,38.7254,293.2,6.954
169,baicheng,0,CN,1571292000,18.0,45.6099,122.8653,292.014,4.614
170,metu,46,ET,1571475600,58.0,8.3012,35.581,300.088,0.784
171,victoria,98,BN,1571119200,69.0,5.2785,115.2423,304.14,3.238
172,leo,0,BF,1571410800,44.0,11.0971,-2.1048,306.97,3.07
173,karlskoga,100,SE,1571486400,84.0,59.3292,14.5177,283.261,3.16
174,thompson,100,CA,1571432400,88.0,55.7433,-97.8635,279.615,1.706
175,takayama,49,JP,1571281200,68.0,36.1396,137.251,288.325,3.125
176,jeronimo monteiro,63,BR,1571497200,38.0,-20.7895,-41.3951,305.502,2.054
177,cockburn town,62,TC,1571259600,68.0,21.4612,-71.1419,302.063,2.787
178,saint-joseph,0,FR,1571151600,53.0,43.5562,6.9715,294.5,9.442
179,mackay,31,CA,1571346000,42.0,53.65,-115.5834,285.441,3.063
180,severo-kurilsk,9,RU,1571540400,70.0,50.6789,156.125,279.388,1.399
181,college,0,US,1571184000,37.0,64.8569,-147.8028,274.254,1.493
182,mwene-ditu,81,CD,1571389200,65.0,-7.0065,23.4488,301.109,0.12
183,ulaangom,0,MN,1571119200,25.0,49.98,92.0689,285.62,3.349
184,najran,19,SA,1571486400,21.0,17.544,44.2247,299.711,4.773
185,esperance,11,AU,1571540400,53.0,-33.8583,121.8932,295.448,5.824
186,dukat,100,AL,1571238000,71.0,40.2512,19.565,295.7,0.914
187,paratebueno,93,CO,1571248800,58.0,4.3757,-73.2128,304.1,1.797
188,parnarama,24,BR,1571162400,19.0,-5.6824,-43.0896,314.084,1.784
189,cairns,25,AU,1571119200,65.0,-16.9205,145.7719,303.18,3.266
190,coahuayana,17,MX,1571173200,66.0,18.6201,-100.3453,303.003,1.312
191,puerto escondido,67,MX,1571162400,52.0,15.8624,-97.0717,302.884,2.132
192,mugumu,87,TZ,1571302800,26.0,-1.8403,34.6709,307.569,1.096
193,sinop,42,TR,1571302800,69.0,42.0267,35.1507,294.279,2.532
194,buta,36,CD,1571140800,42.0,2.7933,24.7287,307.92,0.814
195,talakan,45,RU,1571464800,55.0,50.2948,130.2826,284.032,0.82
196,hofn,100,IS,1571194800,85.0,64.2539,-15.2082,282.693,16.235
197,yerbogachen,50,RU,1571205600,87.0,61.2767,108.0108,278.689,4.136
198,candido mendes,9,BR,1571497200,53.0,-1.4467,-45.7167,304.612,4.741
199,kalmunai,27,LK,1571140800,71.0,7.4167,81.8167,302.44,4.172
200,maracaibo,78,CO,1571151600,53.0,3.4126,-75.7842,291.4,1.513
201,isangel,53,VU,1571119200,73.0,-19.55,169.2667,297.88,6.688
202,rio gallegos,100,AR,1571508000,46.0,-51.6227,-69.2182,288.082,9.674
203,lagoa,35,PT,1571410800,89.0,37.1363,-8.4541,293.44,3.091
204,visby,100,SE,1571227200,77.0,57.6379,18.298,288.403,2.619
205,flic en flac,18,MU,1571130000,63.0,-20.2742,57.3631,297.63,5.1
206,quatre cocos,0,MU,1571140800,70.0,-20.2078,57.7625,296.89,4.97
207,guadalupe y calvo,0,MX,1571248800,56.0,26.095,-106.9649,295.9,0.436
208,roma,36,IT,1571140800,48.0,41.8933,12.4829,298.1,6.275
209,boende,65,CD,1571130000,57.0,-0.2837,20.8826,303.764,1.965
210,lata,0,IN,1571205600,57.0,30.7809,78.6152,279.359,3.761
211,muyuka,96,CM,1571486400,54.0,4.2862,9.4077,304.371,1.006
212,ingham,0,AU,1571194800,19.0,-18.6477,146.1603,309.903,2.816
213,daru,51,PG,1571367600,58.0,-9.07,143.21,302.551,4.805
214,wajima,100,JP,1571464800,91.0,37.4,136.9,291.242,3.836
215,grand-lahou,41,CI,1571238000,84.0,5.2443,-5.0035,299.6,6.211
216,holland,100,US,1571432400,63.0,42.7876,-86.1091,286.645,4.631
217,itarema,48,BR,1571497200,42.0,-2.9248,-39.9167,307.212,6.244
218,katsuura,98,JP,1571367600,73.0,33.9258,134.505,295.811,0.602
219,barcelos,16,BR,1571410800,45.0,-0.973,-62.9257,309.0,0.511
220,mezen,96,RU,1571130000,71.0,65.8522,44.24,277.454,3.601
221,pochutla,59,MX,1571173200,73.0,15.7432,-96.4661,302.293,4.522
222,butaritari,46,KI,1571356800,70.0,3.0707,172.7902,302.716,5.818
223,kavaratti,100,IN,1571270400,67.0,10.5669,72.642,302.39,3.278
224,caravelas,53,BR,1571497200,49.0,-17.7297,-39.2661,303.232,3.958
225,vardo,0,US,1571173200,55.0,39.6165,-77.7392,290.493,3.173
226,burnie,71,AU,1571119200,54.0,-41.0524,145.9064,289.75,8.304
227,klaksvik,100,FO,1571389200,83.0,62.2266,-6.5891,283.209,8.686
228,yinchuan,53,CN,1571292000,29.0,38.4829,106.2116,289.204,4.465
229,cananea,0,MX,1571259600,22.0,30.9835,-110.3014,298.983,2.338
230,channel-port aux basques,100,CA,1571367600,96.0,47.5702,-59.1368,283.781,13.904
231,labuhan,93,ID,1571205600,40.0,-2.5409,115.5092,308.719,0.906
232,kaitangata,3,NZ,1571454000,55.0,-46.2818,169.8464,287.686,8.416
233,ziezmariai,83,LT,1571227200,65.0,54.8,24.45,291.113,5.439
234,tacna,9,PE,1571151600,35.0,-18.014,-70.2512,293.57,3.974
235,rio muerto,0,MX,1571259600,37.0,27.4167,-110.2334,308.223,2.154
236,casablanca,0,MA,1571400000,38.0,33.5951,-7.6188,296.98,4.106
237,sioux lookout,92,CA,1571432400,63.0,50.1001,-91.9191,287.415,5.622
238,bathsheba,78,BB,1571238000,69.0,13.2167,-59.5167,302.3,4.407
239,chuy,45,UY,1571421600,79.0,-33.6938,-53.4562,294.003,4.87
240,ixtapa,39,MX,1571248800,60.0,20.715,-105.2067,299.5,3.162
241,newport,100,GB,1571194800,93.0,51.5882,-2.9975,287.873,11.677
242,faanui,91,PF,1571194800,73.0,-16.4834,-151.75,300.223,3.582
243,virginia beach,100,US,1571227200,75.0,36.853,-75.9775,293.253,5.436
244,abha,93,SA,1571130000,18.0,18.2164,42.5044,305.164,6.432
245,sao paulo de olivenca,71,BR,1571151600,47.0,-3.3784,-68.8725,308.3,0.644
246,vila franca do campo,86,PT,1571227200,85.0,37.7167,-25.4334,294.973,11.952
247,puerto baquerizo moreno,100,EC,1571356800,85.0,-0.9,-89.6,292.956,4.948
248,wanning,32,AT,1571140800,63.0,48.6402,13.529,292.43,1.788
249,kodiak,0,US,1571432400,57.0,39.9519,-94.7572,295.065,9.415
250,kamenka,0,MD,1571140800,38.0,48.0322,28.7042,295.83,3.615
251,ravar,0,IR,1571475600,7.0,31.2677,56.807,300.148,3.644
252,uhlove,0,UA,1571486400,50.0,44.8215,33.6045,294.761,5.251
253,saeby,100,DK,1571151600,86.0,57.3319,10.5225,285.4,6.588
254,lanxi,2,CN,1571464800,47.0,29.2103,119.4554,296.442,2.508
255,mehamn,32,NO,1571130000,82.0,71.035,27.8517,274.08,1.609
256,beringovskiy,100,RU,1571173200,87.0,63.05,179.3167,278.193,17.418
257,bom jesus,96,BR,1571508000,15.0,-9.0752,-44.3557,311.932,2.878
258,meulaboh,20,ID,1571216400,73.0,4.1363,96.1285,301.406,2.98
259,finschhafen,69,PG,1571529600,74.0,-6.6041,147.8537,300.476,6.743
260,hwange,0,ZW,1571486400,11.0,-18.353,26.4987,310.161,2.834
261,souillac,75,FR,1571400000,62.0,45.6006,-0.6,291.03,4.996
262,zabol,0,IR,1571486400,8.0,31.0278,61.4948,303.071,2.41
263,saint anthony,0,US,1571259600,16.0,43.9663,-111.6822,291.703,5.473
264,hervey bay,70,AU,1571454000,60.0,-25.2986,152.8535,298.916,3.311
265,basco,94,US,1571518800,69.0,40.3278,-91.2002,291.929,1.697
266,antalaha,0,MG,1571400000,75.0,-14.902,50.2794,298.53,6.845
267,fortuna,100,US,1571173200,18.0,40.5974,-124.1561,296.803,1.064
268,bud,99,NO,1571313600,77.0,62.9088,6.9145,284.589,1.15
269,tamboril,11,BR,1571162400,22.0,-4.8314,-40.3196,311.184,3.459
270,emiliano zapata,89,MX,1571518800,35.0,20.2267,-89.4671,309.239,1.541
271,pacifica,0,US,1571173200,61.0,37.6138,-122.487,289.893,4.002
272,monrovia,44,LR,1571313600,68.0,6.328,-10.7978,301.689,2.989
273,igarka,100,RU,1571151600,97.0,67.4672,86.5698,275.9,1.92
274,pecos,2,US,1571432400,27.0,31.4245,-103.4935,304.325,7.174
275,carnarvon,0,ZA,1571227200,7.0,-30.9678,22.1333,305.953,4.38
276,xinpu,0,CN,1571540400,49.0,27.6284,119.9317,295.428,0.95
277,geraldton,85,CA,1571508000,62.0,49.7189,-86.9494,286.772,6.022
278,changde,0,CN,1571464800,36.0,29.0405,111.6781,300.062,1.419
279,kayunga,100,UG,1571130000,40.0,0.7012,32.9035,303.894,1.158
280,paamiut,100,GL,1571540400,84.0,61.994,-49.6678,277.608,4.176
281,cabra,92,ES,1571410800,47.0,37.4718,-4.4336,296.66,3.141
282,viedma,0,AR,1571508000,19.0,-40.8086,-62.9947,300.482,5.433
283,gari,49,RU,1571130000,74.0,59.4274,62.3525,279.844,4.259
284,bojnurd,0,IR,1571475600,10.0,37.4747,57.329,295.628,4.281
285,ponta do sol,75,BR,1571497200,36.0,-20.6335,-45.9989,305.182,2.325
286,half moon bay,0,US,1571173200,61.0,37.4636,-122.4286,289.893,4.002
287,bondoukou,0,CI,1571410800,67.0,8.0398,-2.7985,302.89,1.532
288,north bend,100,US,1571173200,41.0,43.4065,-124.2243,289.833,3.383
289,houma,0,CN,1571464800,49.0,35.6254,111.3627,293.132,4.3
290,atar,0,MR,1571324400,16.0,20.5183,-13.0544,310.89,6.271
291,namibe,13,AO,1571216400,83.0,-15.1902,12.1531,295.636,4.542
292,skjervoy,80,NO,1571389200,61.0,70.0311,20.9714,277.179,2.174
293,gimli,52,CA,1571518800,69.0,50.6323,-96.9882,283.749,6.185
294,kikwit,80,CD,1571227200,56.0,-5.0384,18.8178,303.373,2.117
295,wajid,83,SO,1571140800,47.0,3.8093,43.2471,304.16,2.617
296,yumen,0,CN,1571302800,15.0,40.2917,97.0449,291.409,0.412
297,talnakh,100,RU,1571119200,88.0,69.494,88.3908,272.83,1.32
298,uray,99,RU,1571130000,73.0,60.1291,64.8036,278.804,4.282
299,luanda,67,AO,1571151600,81.0,-8.8272,13.2437,298.7,4.655
300,lorengau,71,PG,1571216400,72.0,-2.0226,147.2712,302.446,3.915
301,dennery,98,LC,1571410800,69.0,13.8996,-60.8879,302.57,4.968
302,yasnogorsk,26,RU,1571313600,71.0,54.4793,37.6933,288.219,4.812
303,joshimath,0,IN,1571216400,46.0,30.5667,79.5667,288.776,3.034
304,tessalit,0,ML,1571238000,10.0,20.2009,1.014,312.0,2.854
305,eirunepe,66,BR,1571151600,41.0,-6.6603,-69.8737,308.7,0.92
306,kununurra,43,AU,1571464800,11.0,-15.7731,128.7388,314.712,4.687
307,mahibadhoo,100,MV,1571140800,68.0,3.7833,72.9667,302.33,2.764
308,havre,41,US,1571259600,25.0,48.55,-109.6841,292.363,8.251
309,bihoro,0,JP,1571367600,41.0,43.7548,144.1351,284.621,1.282
310,severo-yeniseyskiy,100,RU,1571119200,75.0,60.3725,93.0408,282.67,3.922
311,zabid,14,YE,1571140800,24.0,14.1972,44.5021,296.62,7.143
312,portland,20,US,1571119200,82.0,43.661,-70.2549,286.15,4.83
313,tyulgan,100,RU,1571151600,91.0,52.3405,56.166,284.7,6.629
314,praia,80,BR,1571497200,33.0,-20.2488,-43.8055,307.302,0.841
315,hasaki,100,JP,1571475600,83.0,35.7333,140.8333,298.098,13.421
316,shimabara,0,JP,1571292000,30.0,32.7911,130.3295,299.014,2.835
317,ugoofaaru,29,MV,1571151600,67.0,5.6667,73.0,302.3,1.712
318,lima,1,PE,1571173200,62.0,-12.0622,-77.0366,293.433,4.206
319,khambhat,0,IN,1571130000,31.0,22.3166,72.6244,308.364,3.625
320,pangnirtung,100,CA,1571248800,65.0,66.149,-65.7179,273.6,2.959
321,ojinaga,0,US,1571432400,24.0,29.56,-104.4088,304.975,5.604
322,karoi,0,ZW,1571486400,13.0,-16.8191,29.6837,308.991,1.257
323,bilma,0,NE,1571140800,11.0,18.6929,12.9187,312.11,6.624
324,atherton,0,AU,1571194800,16.0,-17.2675,145.4762,306.433,3.896
325,oda,99,JP,1571367600,67.0,35.1922,132.4996,295.011,1.634
326,iskateley,99,RU,1571130000,81.0,67.6803,53.1512,275.994,4.8
327,praya,33,ID,1571464800,20.0,-8.7054,116.2704,305.702,6.085
328,bertoua,84,CM,1571238000,65.0,4.5777,13.6844,299.7,0.757
329,sfantu gheorghe,17,RO,1571140800,30.0,44.65,26.8333,297.76,2.739
330,hernani,92,ES,1571248800,68.0,43.2662,-1.975,293.3,4.636
331,zapolyarnyy,0,RU,1571130000,79.0,69.4262,30.8199,274.67,0.884
332,port hardy,1,CA,1571518800,68.0,50.6996,-127.4199,283.159,1.406
333,hami,0,CN,1571302800,21.0,42.8354,93.5128,292.819,2.278
334,batemans bay,46,AU,1571119200,38.0,-35.7073,150.1783,297.64,0.474
335,pevek,100,RU,1571356800,85.0,69.7028,170.2747,274.086,3.226
336,palmer,0,AU,1571540400,35.0,-34.8528,139.1601,291.958,3.398
337,nalut,10,LY,1571151600,25.0,31.8642,10.983,303.3,3.839
338,changtu,33,CN,1571464800,48.0,42.785,124.1054,292.262,6.145
339,axim,89,GH,1571400000,65.0,4.8654,-2.2422,303.48,3.717
340,cranbrook,0,CA,1571259600,42.0,49.5092,-115.7602,283.463,3.491
341,kavieng,15,PG,1571475600,69.0,-2.5745,150.7967,302.718,2.891
342,numan,57,NG,1571140800,57.0,9.4598,12.0359,305.5,4.757
343,muravlenko,86,RU,1571130000,80.0,63.7948,74.4969,280.094,4.668
344,novikovo,0,RU,1571140800,58.0,51.1537,37.8879,292.5,4.174
345,nouadhibou,31,MR,1571335200,54.0,20.931,-17.0347,300.895,8.269
346,gallup,0,US,1571259600,13.0,35.5284,-108.744,292.873,2.672
347,garmsar,48,IR,1571486400,8.0,35.2223,52.3384,303.341,0.592
348,svetlogorsk,100,RU,1571151600,91.0,53.1375,59.1545,283.4,5.515
349,nemuro,100,JP,1571518800,97.0,43.3236,145.575,287.309,4.548
350,oksfjord,0,NO,1571130000,88.0,70.2396,22.3479,271.94,0.888
351,zwedru,30,LR,1571324400,55.0,6.0687,-8.1343,304.89,1.038
352,faya,2,SA,1571486400,23.0,18.3851,42.4509,298.421,2.729
353,jiujiang,0,CN,1571464800,34.0,29.7275,115.9913,298.402,3.145
354,marshall,0,US,1571432400,42.0,39.1231,-93.1969,295.535,6.782
355,changji,0,CN,1571464800,29.0,32.0671,116.1675,299.662,4.015
356,xining,0,CN,1571389200,19.0,36.6219,101.773,286.319,1.411
357,hanzhong,21,CN,1571378400,53.0,33.0821,107.0309,293.823,1.132
358,gumdag,0,TM,1571486400,13.0,39.2024,54.5875,301.061,3.718
359,santa rosa,0,AR,1571421600,23.0,-36.6204,-64.2907,298.253,5.372
360,hohhot,100,CN,1571475600,57.0,40.8106,111.6522,285.008,4.137
361,tosham,0,IN,1571475600,15.0,28.8702,75.9153,309.238,0.526
362,belyy yar,0,RU,1571130000,46.0,53.6039,91.3903,287.354,1.696
363,neryungri,52,RU,1571292000,89.0,56.658,124.7123,276.134,3.839
364,la ronge,0,CA,1571432400,59.0,55.1004,-105.3013,284.425,1.796
365,sungaipenuh,24,ID,1571205600,52.0,-2.0834,101.3833,299.669,2.607
366,hobyo,60,SO,1571302800,48.0,5.3505,48.5268,304.589,3.779
367,bonavista,100,CA,1571410800,97.0,48.6542,-53.1104,284.97,6.722
368,entre rios,73,BR,1571410800,42.0,-11.9424,-38.0837,303.62,3.809
369,riohacha,4,CO,1571162400,59.0,11.5446,-72.907,305.484,5.578
370,mwingi,13,KE,1571140800,41.0,-0.9333,38.0666,301.34,4.25
371,broome,98,GB,1571227200,77.0,52.4688,1.4544,289.583,8.484
372,san javier,100,BR,1571508000,56.0,-27.8739,-55.1348,299.202,1.765
373,astana,100,KZ,1571205600,75.0,51.1283,71.4306,285.928,13.214
374,sao joao da barra,5,BR,1571486400,68.0,-21.6403,-41.0512,298.711,2.798
375,lieksa,95,FI,1571486400,90.0,63.3178,30.0191,279.921,2.921
376,akdagmadeni,57,TR,1571140800,19.0,39.6603,35.8836,295.25,2.483
377,cerrito,88,CO,1571151600,58.0,6.8415,-72.6953,290.35,2.664
378,regeneracao,0,BR,1571497200,25.0,-6.2378,-42.6884,312.462,2.045
379,voloshka,100,RU,1571529600,98.0,61.3323,40.0922,277.006,3.255
380,port hedland,93,AU,1571378400,12.0,-20.3112,118.5801,311.973,5.921
381,roros,65,NO,1571486400,82.0,62.5747,11.3842,277.451,2.015
382,mapimi,40,MX,1571173200,38.0,25.8167,-103.85,302.553,2.681
383,abu dhabi,0,AE,1571238000,56.0,24.4748,54.3706,304.9,6.686
384,samur,0,AZ,1571130000,33.0,41.6365,48.4308,295.904,2.859
385,avera,67,US,1571259600,59.0,33.194,-82.5271,299.383,5.625
386,jevargi,28,IN,1571389200,60.0,17.0167,76.7667,303.349,4.46
387,hambantota,53,LK,1571140800,73.0,6.1241,81.1185,302.22,4.216
388,fairview,0,CA,1571346000,47.0,56.0671,-118.381,284.411,5.333
389,sao francisco de paula,100,BR,1571324400,86.0,-29.4481,-50.5837,296.59,1.256
390,kahului,41,US,1571518800,71.0,20.8894,-156.4728,300.009,11.314
391,ardakan,89,IR,1571486400,8.0,32.3063,54.016,303.541,4.497
392,riyadh,0,SA,1571400000,9.0,24.632,46.7151,307.86,4.9
393,gornyy,86,RU,1571130000,54.0,51.7561,48.5385,292.014,9.201
394,chivay,72,PE,1571162400,31.0,-15.6367,-71.6023,286.084,3.402
395,ahipara,56,NZ,1571119200,83.0,-35.1665,173.1562,290.99,12.307
396,san juan bautista,94,PY,1571324400,66.0,-26.6691,-57.1458,302.69,0.809
397,ojhar,0,IN,1571130000,43.0,20.0943,73.928,302.744,4.648
398,broken hill,6,AU,1571119200,21.0,-31.9651,141.4511,300.83,4.266
399,sumbe,26,AO,1571486400,55.0,-11.202,13.8397,302.121,4.768
400,kindu,56,CD,1571140800,37.0,-2.9494,25.9184,309.25,0.595
401,tarauaca,97,BR,1571421600,41.0,-8.1614,-70.7656,307.533,1.146
402,karratha,0,AU,1571540400,53.0,-20.7371,116.8479,301.088,2.493
403,colonia leopoldina,89,BR,1571497200,55.0,-8.9089,-35.725,302.382,3.959
404,onda,0,ES,1571238000,16.0,39.9622,-0.2594,296.6,1.339
405,adamovka,100,RU,1571151600,77.0,51.521,59.9402,286.9,10.72
406,sinaloa,42,MX,1571270400,13.0,32.5525,-115.2781,306.79,1.422
407,sterling,0,US,1571162400,40.0,39.0016,-77.4033,292.784,1.921
408,touros,1,BR,1571238000,73.0,-5.1989,-35.4609,299.6,9.612
409,mahudha,0,IN,1571130000,33.0,22.8202,72.9387,307.594,2.213
410,katherine,26,AU,1571292000,7.0,-14.4657,132.2631,315.184,6.348
411,vostok,91,RU,1571454000,45.0,46.448,135.8294,283.966,1.425
412,iqaluit,100,CA,1571346000,98.0,63.7494,-68.5219,273.071,0.728
413,sainte-rose,100,CA,1571248800,60.0,45.6102,-73.7916,287.6,7.674
414,san vicente,87,EC,1571162400,79.0,-0.5897,-80.4085,296.384,5.019
415,magadan,100,RU,1571464800,46.0,59.5605,150.7989,274.222,1.958
416,adamas,2,GR,1571313600,60.0,36.7333,24.4333,296.199,2.198
417,chapais,68,CA,1571508000,61.0,49.7839,-74.8569,281.252,3.181
418,sitka,33,US,1571432400,33.0,37.175,-99.6516,302.785,7.869
419,port hueneme,100,US,1571248800,41.0,34.1478,-119.1952,296.2,3.15
420,henties bay,16,NA,1571140800,26.0,-22.1161,14.2845,303.16,5.582
421,teguise,73,ES,1571486400,73.0,29.0605,-13.564,295.251,9.385
422,wenling,55,CN,1571119200,70.0,28.3754,121.3812,295.46,8.985
423,belousovka,100,KZ,1571205600,47.0,50.1323,82.5206,287.118,9.357
424,imeni poliny osipenko,81,RU,1571464800,63.0,52.4228,136.4894,282.372,2.461
425,la orilla,64,MX,1571162400,68.0,17.9994,-102.2268,304.184,1.306
426,constitucion,0,MX,1571173200,29.0,23.9912,-104.675,301.313,1.155
427,alofi,98,NU,1571281200,81.0,-19.0596,-169.9187,298.955,7.239
428,guerrero negro,0,MX,1571259600,42.0,27.971,-114.0364,300.953,6.664
429,padang,38,ID,1571205600,74.0,-0.9248,100.3633,299.589,1.314
430,bedele,0,ET,1571140800,59.0,8.4556,36.3525,297.87,0.374
431,gazojak,0,TM,1571313600,17.0,41.1875,61.4036,298.409,4.218
432,winnemucca,100,US,1571259600,9.0,40.973,-117.7357,293.823,3.928
433,palauig,5,PH,1571194800,59.0,15.435,119.9045,302.063,3.056
434,phan thiet,69,VN,1571378400,54.0,10.931,108.1015,305.343,4.892
435,bambanglipuro,20,ID,1571454000,41.0,-7.95,110.2833,305.926,3.647
436,oktyabrskiy,100,RU,1571313600,81.0,55.6086,37.9744,286.219,4.078
437,posse,12,BR,1571151600,12.0,-14.0836,-46.3564,315.5,0.608
438,dolores,33,UY,1571421600,67.0,-33.5301,-58.2171,294.633,4.334
439,tsumeb,0,NA,1571486400,6.0,-19.2492,17.7162,308.361,5.895
440,honiara,73,SB,1571119200,83.0,-9.4313,159.9553,302.43,0.999
441,baiyin,0,CN,1571389200,22.0,36.5459,104.1339,290.129,1.774
442,douentza,67,ML,1571151600,12.0,15.0069,-2.953,313.2,6.03
443,shadrinsk,100,RU,1571130000,63.0,56.0852,63.6335,280.654,6.91
444,carmen,8,PH,1571464800,61.0,7.3575,125.7098,303.272,2.116
445,fort nelson,100,CA,1571259600,79.0,58.8063,-122.694,275.153,0.833
446,dudinka,100,RU,1571119200,93.0,69.4061,86.1751,274.24,6.211
447,road town,100,VG,1571443200,73.0,18.4167,-64.6167,302.313,7.853
448,roald,100,NO,1571324400,77.0,62.5838,6.1242,285.09,6.207
449,mazamari,67,PE,1571162400,57.0,-11.3289,-74.5307,299.084,0.777
450,toppenish,100,US,1571184000,33.0,46.3775,-120.309,289.664,1.965
451,constantine,29,DZ,1571486400,30.0,36.3645,6.6083,301.851,3.836
452,causapscal,90,CA,1571119200,97.0,48.3542,-67.227,282.91,3.468
453,kokkola,100,FI,1571497200,91.0,63.8366,23.1336,281.372,4.513
454,sept-iles,82,CA,1571119200,88.0,50.2001,-66.3821,282.86,8.723
455,fukue,28,JP,1571194800,39.0,35.0335,136.6943,295.033,0.677
456,mount gambier,94,AU,1571119200,84.0,-37.8302,140.7843,288.68,2.864
457,okha,10,RU,1571454000,62.0,53.5905,142.9501,282.876,4.51
458,auki,38,NG,1571151600,37.0,12.1824,6.5056,306.1,2.979
459,vaitape,91,PF,1571194800,73.0,-16.5167,-151.75,300.223,3.582
460,ryazanskaya,0,RU,1571313600,35.0,44.9551,39.5865,298.349,1.362
461,moss point,82,US,1571162400,76.0,30.4116,-88.5345,301.084,2.876
462,port-cartier,0,CA,1571162400,42.0,50.0257,-66.8819,284.884,3.45
463,shar,83,NG,1571140800,71.0,7.3,8.7333,302.72,3.267
464,santa cruz,0,BR,1571324400,33.0,-6.2248,-36.0193,307.29,5.997
465,hastings,0,NZ,1571454000,57.0,-39.6431,176.8448,292.266,0.937
466,donja dubica,0,BA,1571140800,34.0,45.075,18.4114,298.44,0.825
467,nyamati,28,IN,1571216400,70.0,14.1491,75.5761,301.066,4.211
468,tabou,61,CI,1571227200,65.0,4.4194,-7.3604,303.103,2.997
469,vila do maio,96,CV,1571248800,76.0,15.1333,-23.2167,300.9,2.876
470,port lincoln,87,AU,1571367600,62.0,-34.7212,135.8592,290.771,10.275
471,tual,99,ID,1571464800,70.0,-5.6667,132.75,302.202,1.398
472,ust-maya,89,RU,1571378400,95.0,60.4164,134.5365,274.263,1.729
473,weligama,83,LK,1571205600,65.0,5.9667,80.4167,303.299,2.58
474,sciacca,66,IT,1571140800,76.0,37.5065,13.0823,296.06,6.095
475,guia de isora,1,ES,1571508000,76.0,28.2115,-16.7795,295.642,3.753
476,tigil,70,RU,1571540400,76.0,57.8,158.6667,273.498,1.196
477,lishu,42,CN,1571464800,48.0,43.3055,124.3249,291.502,5.689
478,peniche,100,PT,1571270400,89.0,39.3566,-9.3813,291.56,8.822
479,kirakira,61,SB,1571270400,69.0,-10.4569,161.9202,301.98,3.251
480,dali,76,CN,1571475600,48.0,34.7925,109.9383,294.228,1.689
481,popondetta,18,PG,1571540400,46.0,-8.7668,148.2375,300.818,2.626
482,jackson,1,US,1571518800,65.0,32.299,-90.1848,300.169,2.953
483,pag,34,HR,1571238000,81.0,44.445,15.0575,292.1,0.399
484,sapa,98,PH,1571464800,53.0,14.3206,120.7574,305.302,0.379
485,waipawa,100,NZ,1571356800,57.0,-39.9412,176.5913,293.946,1.106
486,tete,0,MZ,1571486400,14.0,-16.1606,33.5871,314.491,1.148
487,chumikan,50,RU,1571367600,46.0,54.7183,135.315,284.671,9.928
488,tuatapere,47,NZ,1571443200,50.0,-46.1324,167.6908,287.743,3.718
489,laguna,62,BZ,1571335200,44.0,16.1684,-88.941,309.345,0.671
490,roanoke,1,US,1571508000,33.0,37.271,-79.9415,293.582,1.891
491,lichinga,10,MZ,1571475600,36.0,-13.3,35.2459,302.828,3.415
492,balikpapan,50,ID,1571378400,56.0,-1.2399,116.8593,305.713,2.031
493,awjilah,0,LY,1571410800,17.0,29.1403,21.2975,307.36,2.903
494,skibbereen,100,IE,1571162400,95.0,51.55,-9.2667,286.684,9.873
495,tarrafal,4,CV,1571248800,77.0,15.2833,-23.7667,300.8,3.174
496,srandakan,20,ID,1571454000,41.0,-7.9387,110.2506,305.926,3.647
497,icusesti,0,RO,1571140800,44.0,46.8,26.9333,295.52,4.209
498,kurumkan,39,RU,1571205600,55.0,54.3263,110.3233,280.309,0.64
499,sur,0,OM,1571389200,19.0,22.5702,59.5299,306.309,4.254
500,sainte-suzanne,98,CH,1571486400,69.0,47.5061,6.7749,290.041,2.386
501,miles city,88,US,1571346000,23.0,46.4085,-105.841,293.951,2.793
502,samarai,17,PG,1571367600,65.0,-10.6167,150.6667,300.251,4.254
503,novita,74,CO,1571259600,69.0,4.9551,-76.6053,299.433,1.366
504,makinsk,100,KZ,1571184000,90.0,52.6329,70.4182,283.194,10.31
505,sosva,100,RU,1571130000,77.0,59.1739,61.8619,279.634,3.051
506,pavlohrad,41,UA,1571313600,36.0,48.5317,35.8704,295.719,2.197
507,amga,94,RU,1571367600,91.0,60.8942,131.98,275.311,2.152
508,mecca,0,SA,1571227200,9.0,21.426,39.8297,311.683,5.266
509,orlik,44,PL,1571140800,58.0,53.9541,17.7357,292.54,4.809
510,miri,71,NG,1571140800,32.0,10.3127,9.7453,309.51,0.704
511,matara,99,BI,1571227200,65.0,-3.4812,29.4807,294.803,2.774
512,pilot butte,96,CA,1571346000,45.0,50.4786,-104.418,289.351,3.931
513,severobaykalsk,16,RU,1571216400,67.0,55.65,109.3167,280.676,0.222
514,thinadhoo,97,MV,1571302800,70.0,0.5333,72.9333,301.049,2.906
515,irbeyskoye,30,RU,1571130000,52.0,55.6428,95.4522,288.304,0.714
516,aljezur,32,PT,1571421600,90.0,37.3149,-8.8048,293.353,4.541
517,comodoro rivadavia,28,AR,1571518800,32.0,-45.8654,-67.4808,292.319,7.659
518,peleduy,86,RU,1571205600,83.0,59.6253,112.7502,278.789,3.663
519,casambalangan,100,PH,1571378400,78.0,18.3765,122.1274,301.183,5.086
520,noumea,24,NC,1571119200,72.0,-22.2764,166.4572,296.69,6.333
521,navirai,37,BR,1571335200,26.0,-23.0651,-54.1906,311.215,1.566
522,mairana,72,BO,1571335200,47.0,-18.1194,-63.9566,298.505,4.921
523,natal,59,BR,1571151600,72.0,-5.8054,-35.2081,299.8,7.575
524,arlit,12,NE,1571324400,9.0,18.7391,7.3933,312.79,1.393
525,emba,85,CY,1571140800,39.0,34.8083,32.425,302.95,0.351
526,chokurdakh,100,RU,1571119200,94.0,70.6192,147.9022,265.32,4.649
527,bodmin,26,GB,1571151600,75.0,50.4707,-4.7244,286.84,4.89
528,villafranca di verona,54,IT,1571140800,68.0,45.3509,10.846,293.48,3.753
529,dire dawa,0,ET,1571130000,40.0,9.5945,41.8557,296.564,6.359
530,dingle,92,PH,1571540400,68.0,11.0001,122.6718,303.548,3.628
531,sao filipe,1,CV,1571486400,77.0,14.8961,-24.4956,299.701,5.425
532,camabatela,72,AO,1571486400,61.0,-8.1872,15.3739,298.991,2.251
533,mumford,45,GH,1571400000,59.0,5.2614,-0.7599,304.67,2.604
534,baghdad,99,IQ,1571486400,12.0,33.3024,44.3788,311.111,3.55
535,machachi,21,EC,1571151600,40.0,-0.5128,-78.5655,289.64,2.284
536,riachao das neves,9,BR,1571497200,14.0,-11.7462,-44.91,314.372,1.615
537,samana,82,EC,1571162400,41.0,0.1222,-76.9728,307.084,1.342
538,salalah,0,OM,1571475600,47.0,17.0149,54.0957,302.678,3.76
539,blagoveshchensk,0,RU,1571378400,34.0,50.2905,127.5272,288.713,4.566
540,capitan miranda,98,PY,1571335200,76.0,-27.2001,-55.8,299.635,1.73
541,maceio,7,BR,1571410800,71.0,-9.6659,-35.7353,299.24,4.58
542,puri,42,ID,1571119200,26.0,-7.5373,112.4453,311.2,2.493
543,birin,0,NP,1571119200,48.0,26.8865,88.0718,293.64,2.97
544,cherskiy,100,RU,1571194800,90.0,68.75,161.3,272.073,9.674
545,ostrovnoy,98,RU,1571130000,79.0,68.0544,39.5129,275.724,5.012
546,sakaiminato,100,JP,1571367600,76.0,35.55,133.2333,293.731,4.538
547,rampura,0,IN,1571130000,34.0,24.4679,75.4404,303.544,0.596
548,bajil,0,ES,1571486400,37.0,38.2322,-2.0722,295.021,4.613
549,fallon,9,US,1571259600,26.0,46.8369,-105.1232,293.613,7.022
550,baykit,93,RU,1571205600,80.0,61.6784,96.3854,280.779,3.142
551,margate,100,AU,1571540400,66.0,-43.0274,147.2623,286.038,6.43
552,khor,0,RU,1571378400,52.0,47.8826,134.9609,285.523,4.059
553,bargarh,0,IN,1571130000,31.0,25.1447,81.4472,305.034,1.946
554,nokaneng,0,BW,1571486400,7.0,-19.6622,22.1901,311.791,3.745
555,naryan-mar,99,RU,1571130000,81.0,67.6713,53.087,275.994,4.8
556,vestmannaeyjar,99,IS,1571140800,80.0,63.4427,-20.2734,282.57,16.97
557,pindiga,51,NG,1571140800,65.0,9.9833,10.9333,303.29,5.588
558,belaya gora,100,RU,1571119200,94.0,68.537,146.1873,266.36,4.851
559,wuxue,0,CN,1571464800,29.0,29.847,115.5563,300.472,4.166
560,miquelon,100,PM,1571389200,90.0,47.0975,-56.3814,285.059,7.366
561,badamdar,0,AZ,1571400000,54.0,40.3412,49.8077,295.99,3.832
562,zhigansk,100,RU,1571281200,96.0,66.7656,123.3741,275.585,6.964
563,santa lucia,36,IT,1571140800,48.0,41.9834,12.6556,298.1,6.275
564,chaadayevka,71,RU,1571140800,61.0,53.1427,45.9122,288.91,7.851
